{
    "servers": [
            {
                "lat": 81.3241,
                "lon": 43.9168,
                "name": "Yili",
                "country": "China",
                "cc": "CN",
                "sponsor": "China Mobile Group XinJiang",
                "id": 17228,
                "host": "speedtest4.xj.chinamobile.com:8080"
            },
            {
                "lat": 70.6632,
                "lon": 23.6817,
                "name": "Hammerfest",
                "country": "Norway",
                "cc": "NO",
                "sponsor": "Hammerfest Energi Bredb\u00e5nd AS",
                "id": 21239,
                "host": "speedtest.oppinord.no:8080"
            },
            {
                "lat": 70.0733,
                "lon": 29.7497,
                "name": "Vadso",
                "country": "Norway",
                "cc": "NO",
                "sponsor": "Varanger KraftUtvikling AS",
                "id": 4600,
                "host": "88.84.191.230:8080"
            },
            {
                "lat": 69.9403,
                "lon": 23.3106,
                "name": "Alta",
                "country": "Norway",
                "cc": "NO",
                "sponsor": "Eltele AS",
                "id": 3433,
                "host": "speedo.eltele.no:8080"
            },
            {
                "lat": 69.9403,
                "lon": 23.3106,
                "name": "Alta",
                "country": "Norway",
                "cc": "NO",
                "sponsor": "Nornett AS",
                "id": 4961,
                "host": "speedtest.nornett.net:8080"
            },
            {
                "lat": 69.6492,
                "lon": 18.9553,
                "name": "Troms\u00f8",
                "country": "Norway",
                "cc": "NO",
                "sponsor": "Broadnet",
                "id": 11786,
                "host": "tos.speedtest.as2116.net:8080"
            },
            {
                "lat": 68.9543,
                "lon": 33.1076,
                "name": "Murmansk",
                "country": "Russian Federation",
                "cc": "RU",
                "sponsor": "Rostelecom",
                "id": 3522,
                "host": "murmansk.speedtest.rt.ru:8080"
            },
            {
                "lat": 68.9543,
                "lon": 33.1076,
                "name": "Murmansk",
                "country": "Russian Federation",
                "cc": "RU",
                "sponsor": "Net By Net Holding LLC",
                "id": 11072,
                "host": "mrm-speedtest-srv02.ti.ru:8080"
            },
            {
                "lat": 68.9543,
                "lon": 33.1076,
                "name": "Murmansk",
                "country": "Russian Federation",
                "cc": "RU",
                "sponsor": "M2C",
                "id": 1521,
                "host": "speedtest.mmsn.ru:8080"
            },
            {
                "lat": 68.5656,
                "lon": 14.9042,
                "name": "Stokmarknes",
                "country": "Norway",
                "cc": "NO",
                "sponsor": "Trollfjord Broadband AS",
                "id": 4755,
                "host": "ookla.trollfjord.no:8080"
            },
            {
                "lat": 67.6333,
                "lon": 53.05,
                "name": "Naryan-Mar",
                "country": "Russian Federation",
                "cc": "RU",
                "sponsor": "Rostelecom",
                "id": 4280,
                "host": "naryan-mar.speedtest.rt.ru:8080"
            },
            {
                "lat": 67.5667,
                "lon": 33.4,
                "name": "Apatity",
                "country": "Russian Federation",
                "cc": "RU",
                "sponsor": "Citylink Ltd",
                "id": 4980,
                "host": "speedtest-ap.murm.pro:8080"
            },
            {
                "lat": 67.2833,
                "lon": 14.3833,
                "name": "Bod\u00f8",
                "country": "Norway",
                "cc": "NO",
                "sponsor": "Signal Broadband AS",
                "id": 3308,
                "host": "speedtest.signal.no:8080"
            },
            {
                "lat": 67.2804,
                "lon": 14.4049,
                "name": "Bod\u00f8",
                "country": "Norway",
                "cc": "NO",
                "sponsor": "Altibox AS",
                "id": 14444,
                "host": "boo-jern-speedtest1.altibox.net:8080"
            },
            {
                "lat": 66.6572,
                "lon": 66.4183,
                "name": "Labytnangi",
                "country": "Russia",
                "cc": "RU",
                "sponsor": "Yamaltelecom",
                "id": 20728,
                "host": "speedtest.lbt.ru:8080"
            },
            {
                "lat": 66.6572,
                "lon": 66.4183,
                "name": "Labytnangi",
                "country": "RU",
                "cc": "RU",
                "sponsor": "Proftelekom-Service",
                "id": 17562,
                "host": "proftelekom.ru:8080"
            },
            {
                "lat": 66.5333,
                "lon": 66.6,
                "name": "Salekhard",
                "country": "Russian Federation",
                "cc": "RU",
                "sponsor": "Rostelecom",
                "id": 2601,
                "host": "salehard.speedtest.rt.ru:8080"
            },
            {
                "lat": 66.5333,
                "lon": 66.6,
                "name": "Salekhard",
                "country": "RU",
                "cc": "RU",
                "sponsor": "JSC CONNECT",
                "id": 17819,
                "host": "cache.connect-online.ru:8080"
            },
            {
                "lat": 66.5333,
                "lon": 66.6,
                "name": "Salekhard",
                "country": "Russian Federation",
                "cc": "RU",
                "sponsor": "Yamaltelecom",
                "id": 15323,
                "host": "speedtest.ytc.ru:8080"
            },
            {
                "lat": 66.0833,
                "lon": 76.6833,
                "name": "Novy Urengoy",
                "country": "Russian Federation",
                "cc": "RU",
                "sponsor": "Rostelecom",
                "id": 3484,
                "host": "novyurengoi.speedtest.rt.ru:8080"
            },
            {
                "lat": 66.0833,
                "lon": 76.6833,
                "name": "Novy Urengoy",
                "country": "Russia",
                "cc": "RU",
                "sponsor": "MegaFon",
                "id": 17031,
                "host": "noviy-urengoi.speedtest-uf.megafon.ru:8080"
            },
            {
                "lat": 66.0833,
                "lon": 76.6833,
                "name": "Novy Urengoy",
                "country": "Russian Federation",
                "cc": "RU",
                "sponsor": "JSC Sigma-KTV",
                "id": 6256,
                "host": "sp1.sigma-ktv.ru:8080"
            },
            {
                "lat": 66.0833,
                "lon": 76.6833,
                "name": "Novy Urengoy",
                "country": "Russian Federation",
                "cc": "RU",
                "sponsor": "Net By Net Holding LLC",
                "id": 11074,
                "host": "nurg-speedtest-srv02.ti.ru:8080"
            },
            {
                "lat": 66.0751,
                "lon": -23.1212,
                "name": "Isafjordur",
                "country": "Iceland",
                "cc": "IS",
                "sponsor": "Snerpa",
                "id": 3644,
                "host": "speed.smartnet.is:8080"
            },
            {
                "lat": 66.0,
                "lon": 57.5333,
                "name": "Usinsk",
                "country": "Russian Federation",
                "cc": "RU",
                "sponsor": "Swift Telecom",
                "id": 3693,
                "host": "test.usinsknet.ru:8080"
            },
            {
                "lat": 65.6885,
                "lon": -18.1262,
                "name": "Akureyri",
                "country": "Iceland",
                "cc": "IS",
                "sponsor": "Tengir hf",
                "id": 10661,
                "host": "sp1.tengir.is:8080"
            },
            {
                "lat": 65.5333,
                "lon": 72.5167,
                "name": "Nadym",
                "country": "Russian Federation",
                "cc": "RU",
                "sponsor": "VKS-Internet",
                "id": 4856,
                "host": "sp1.nadym.tv:8080"
            },
            {
                "lat": 65.0167,
                "lon": 25.4667,
                "name": "Oulu",
                "country": "Finland",
                "cc": "FI",
                "sponsor": "Netplaza Oy",
                "id": 2138,
                "host": "speedtest.netplaza.fi:8080"
            },
            {
                "lat": 64.8378,
                "lon": -147.7164,
                "name": "Fairbanks, AK",
                "country": "United States",
                "cc": "US",
                "sponsor": "University of Alaska",
                "id": 3191,
                "host": "speedtest.alaska.edu:8080"
            },
            {
                "lat": 64.5333,
                "lon": 40.5333,
                "name": "Arkhangelsk",
                "country": "Russian Federation",
                "cc": "RU",
                "sponsor": "Rostelecom",
                "id": 2597,
                "host": "arhangelsk.speedtest.rt.ru:8080"
            },
            {
                "lat": 64.5333,
                "lon": 40.5333,
                "name": "Arkhangelsk",
                "country": "Russian Federation",
                "cc": "RU",
                "sponsor": "Beeline (Vimpelcom) Arkhangelsk",
                "id": 7160,
                "host": "speedtest.net29.ru:8080"
            },
            {
                "lat": 64.225,
                "lon": 27.7333,
                "name": "Kajaani",
                "country": "Finland",
                "cc": "FI",
                "sponsor": "Kaisanet Oy",
                "id": 4565,
                "host": "spdtest-1.kaisanet.fi:8080"
            },
            {
                "lat": 64.175,
                "lon": -51.7389,
                "name": "Nuuk",
                "country": "Greenland",
                "cc": "GL",
                "sponsor": "Tele Greenland A/S",
                "id": 1066,
                "host": "speedtest.tele.gl:8080"
            },
            {
                "lat": 64.1333,
                "lon": -21.9333,
                "name": "Reykjav\u00edk",
                "country": "Iceland",
                "cc": "IS",
                "sponsor": "Vodafone",
                "id": 4141,
                "host": "speedtest.c.is:8080"
            },
            {
                "lat": 64.1333,
                "lon": -21.9333,
                "name": "Reykjavik",
                "country": "Iceland",
                "cc": "IS",
                "sponsor": "Gagnaveita Reykjavikur",
                "id": 6471,
                "host": "speedtest01.gagnaveita.is:8080"
            },
            {
                "lat": 64.1333,
                "lon": -21.9333,
                "name": "Reykjavik",
                "country": "Iceland",
                "cc": "IS",
                "sponsor": "Hringidan",
                "id": 16148,
                "host": "speedtest.hringidan.is:8080"
            },
            {
                "lat": 64.1333,
                "lon": -21.9333,
                "name": "Reykjav\u00edk",
                "country": "IS",
                "cc": "IS",
                "sponsor": "Hringdu",
                "id": 17455,
                "host": "speedtest.hringdu.is:8080"
            },
            {
                "lat": 64.1333,
                "lon": -21.9333,
                "name": "Reykjavik",
                "country": "Iceland",
                "cc": "IS",
                "sponsor": "Nova",
                "id": 3684,
                "host": "speedtest1.nova.is:8080"
            },
            {
                "lat": 64.1333,
                "lon": -21.9333,
                "name": "Reykjavik",
                "country": "Iceland",
                "cc": "IS",
                "sponsor": "Siminn",
                "id": 4818,
                "host": "speedtest.siminn.is:8080"
            },
            {
                "lat": 64.1333,
                "lon": -21.9333,
                "name": "Reykjavik",
                "country": "Iceland",
                "cc": "IS",
                "sponsor": "Nova VIP",
                "id": 10650,
                "host": "speedtest.sip.is:8080"
            },
            {
                "lat": 64.1333,
                "lon": -21.9333,
                "name": "Reykjav\u00edk",
                "country": "Iceland",
                "cc": "IS",
                "sponsor": "Premis ehf",
                "id": 21605,
                "host": "speed.premis.is:8080"
            },
            {
                "lat": 64.0378,
                "lon": -145.7322,
                "name": "Delta Junction, AK",
                "country": "United States",
                "cc": "US",
                "sponsor": "Whitestone Power and Communications",
                "id": 13679,
                "host": "speedtest.whitestone.link:8080"
            },
            {
                "lat": 64.0378,
                "lon": -145.7322,
                "name": "Delta Junction, AK",
                "country": "United States",
                "cc": "US",
                "sponsor": "Vertical Broadband LLC",
                "id": 10094,
                "host": "speedtest.verticalbroadband.com:8080"
            },
            {
                "lat": 64.015,
                "lon": 11.4953,
                "name": "Steinkjer",
                "country": "Norway",
                "cc": "NO",
                "sponsor": "NTE Marked A/S",
                "id": 19080,
                "host": "speedtest01.nteb.no:8080"
            },
            {
                "lat": 63.8258,
                "lon": 20.263,
                "name": "Umea",
                "country": "Sweden",
                "cc": "SE",
                "sponsor": "A3 Allm\u00e4nna IT - och Telekomaktiebolaget",
                "id": 20602,
                "host": "ookla-umea.a3.se:8080"
            },
            {
                "lat": 63.7525,
                "lon": 22.7462,
                "name": "Larsmo",
                "country": "Finland",
                "cc": "FI",
                "sponsor": "Omerta.io",
                "id": 23637,
                "host": "speedtest.omerta.io:8080"
            },
            {
                "lat": 63.7388,
                "lon": 34.3098,
                "name": "Segezha",
                "country": "Russian Federation",
                "cc": "RU",
                "sponsor": "CityLink Ltd",
                "id": 8657,
                "host": "speedtest-sg.karelia.pro:8080"
            },
            {
                "lat": 63.6667,
                "lon": 22.7,
                "name": "Jakobstad",
                "country": "Finland",
                "cc": "FI",
                "sponsor": "JNT",
                "id": 6875,
                "host": "speed1.multi.fi:8080"
            },
            {
                "lat": 63.6667,
                "lon": 22.7,
                "name": "Jakobstad",
                "country": "Finland",
                "cc": "FI",
                "sponsor": "Mati forsman",
                "id": 17254,
                "host": "mati.homeip.net:8080"
            },
            {
                "lat": 63.5975,
                "lon": 22.7889,
                "name": "Benn\u00e4s",
                "country": "Finland",
                "cc": "FI",
                "sponsor": "Storbackas",
                "id": 11898,
                "host": "speedtest2.homeip.net:8080"
            },
            {
                "lat": 63.4297,
                "lon": 10.3933,
                "name": "Trondheim",
                "country": "Norway",
                "cc": "NO",
                "sponsor": "ITsjefen AS",
                "id": 1252,
                "host": "speedtest.itsjefen.no:8080"
            },
            {
                "lat": 63.2906,
                "lon": 9.0891,
                "name": "Kyrks\u00e6ter\u00f8ra",
                "country": "Norway",
                "cc": "NO",
                "sponsor": "Sodvin Energi og Fiber AS",
                "id": 11253,
                "host": "speedtest1.hemnenett.no:8080"
            },
            {
                "lat": 63.2185,
                "lon": 7.4891,
                "name": "Kristiansund",
                "country": "Norway",
                "cc": "NO",
                "sponsor": "NEAS",
                "id": 18865,
                "host": "speedtest.neasonline.no:8080"
            },
            {
                "lat": 63.2,
                "lon": 75.45,
                "name": "Noyabrsk",
                "country": "Russian Federation",
                "cc": "RU",
                "sponsor": "Rostelecom",
                "id": 4281,
                "host": "noyabrsk.speedtest.rt.ru:8080"
            },
            {
                "lat": 63.2,
                "lon": 75.45,
                "name": "Noyabrsk",
                "country": "Russia",
                "cc": "RU",
                "sponsor": "MegaFon",
                "id": 17032,
                "host": "noyabrsk.speedtest-uf.megafon.ru:8080"
            },
            {
                "lat": 63.2,
                "lon": 75.45,
                "name": "Noyabrsk",
                "country": "Russian Federation",
                "cc": "RU",
                "sponsor": "Sever-Svyaz",
                "id": 2017,
                "host": "speed.global-x.ru:8080"
            },
            {
                "lat": 62.9132,
                "lon": 34.4619,
                "name": "Medvezhyegorsk",
                "country": "Russian Federation",
                "cc": "RU",
                "sponsor": "CityLink Ltd",
                "id": 8658,
                "host": "speedtest-mg.karelia.pro:8080"
            },
            {
                "lat": 62.6128,
                "lon": 8.6342,
                "name": "Sunndalsora",
                "country": "Norway",
                "cc": "NO",
                "sponsor": "SuCom AS",
                "id": 4197,
                "host": "speedtest01.sucom.no:8080"
            },
            {
                "lat": 62.5313,
                "lon": 113.9774,
                "name": "Mirny",
                "country": "Russia",
                "cc": "RU",
                "sponsor": "Svyaz Energo LLC",
                "id": 22962,
                "host": "st2.sv-en.ru:8080"
            },
            {
                "lat": 62.4778,
                "lon": 6.1903,
                "name": "Alesund",
                "country": "Norway",
                "cc": "NO",
                "sponsor": "StayOn",
                "id": 4039,
                "host": "speed2.stayon.no:8080"
            },
            {
                "lat": 62.4778,
                "lon": 6.1903,
                "name": "Alesund",
                "country": "Norway",
                "cc": "NO",
                "sponsor": "Tafjord Marked AS",
                "id": 8070,
                "host": "speed1.mimer.no:8080"
            },
            {
                "lat": 62.4778,
                "lon": 6.1903,
                "name": "Alesund",
                "country": "Norway",
                "cc": "NO",
                "sponsor": "Aalesund Fiber",
                "id": 21311,
                "host": "speedtest.administrator.no:8080"
            },
            {
                "lat": 62.4422,
                "lon": -114.3975,
                "name": "Yellowknife, NT",
                "country": "Canada",
                "cc": "CA",
                "sponsor": "Northwestel",
                "id": 13387,
                "host": "yk-netspeed.nwtel.ca:8080"
            },
            {
                "lat": 62.4422,
                "lon": -114.3975,
                "name": "Yellowknife, NT",
                "country": "Canada",
                "cc": "CA",
                "sponsor": "SSI Micro",
                "id": 1843,
                "host": "yk-speedtest01.ssimicro.com:8080"
            },
            {
                "lat": 62.3919,
                "lon": 6.598,
                "name": "Sykkylven",
                "country": "Norway",
                "cc": "NO",
                "sponsor": "PC Support AS",
                "id": 14760,
                "host": "speedtest.pcsupport.no:8080"
            },
            {
                "lat": 62.2333,
                "lon": 25.7333,
                "name": "Jyvaskyla",
                "country": "Finland",
                "cc": "FI",
                "sponsor": "Keski-Suomen Valokuituverkot Oy",
                "id": 9681,
                "host": "nopeustesti2.ksvvnet.fi:8080"
            },
            {
                "lat": 62.2333,
                "lon": 25.7333,
                "name": "Jyvaskyla",
                "country": "Finland",
                "cc": "FI",
                "sponsor": "Seltimil Oy",
                "id": 3038,
                "host": "speedtest.seltimil.com:8080"
            },
            {
                "lat": 62.2333,
                "lon": 25.7333,
                "name": "Jyv\u00e4skyl\u00e4",
                "country": "Finland",
                "cc": "FI",
                "sponsor": "TNNet Oy",
                "id": 23317,
                "host": "speedtest.tnnet.fi:8080"
            },
            {
                "lat": 62.1981,
                "lon": 6.1276,
                "name": "Orsta",
                "country": "Norway",
                "cc": "NO",
                "sponsor": "Tussa IKT AS",
                "id": 10585,
                "host": "sp1.tussa.com:8080"
            },
            {
                "lat": 62.1333,
                "lon": 65.3833,
                "name": "Nyagan",
                "country": "Russian Federation",
                "cc": "RU",
                "sponsor": "N-telecom",
                "id": 6374,
                "host": "speedtest-n1.icom.net.ru:8080"
            },
            {
                "lat": 62.1333,
                "lon": 65.3833,
                "name": "Nyagan",
                "country": "Russian Federation",
                "cc": "RU",
                "sponsor": "OJSC.MTS",
                "id": 1809,
                "host": "speedtest.nyagan.net:8080"
            },
            {
                "lat": 62.1333,
                "lon": 65.3833,
                "name": "Nyagan",
                "country": "Russia",
                "cc": "RU",
                "sponsor": "N-telecom",
                "id": 23619,
                "host": "speedtest1.n-telecom.org:8080"
            },
            {
                "lat": 62.0333,
                "lon": 129.7333,
                "name": "Yakutsk",
                "country": "Russia",
                "cc": "RU",
                "sponsor": "Rostelecom",
                "id": 4480,
                "host": "yakutsk.speedtest.rt.ru:8080"
            },
            {
                "lat": 62.0333,
                "lon": 129.7333,
                "name": "Yakutsk",
                "country": "Russian Federation",
                "cc": "RU",
                "sponsor": "MTS Yakutsk",
                "id": 9679,
                "host": "speedtest-yak.mtsdv.ru:8080"
            },
            {
                "lat": 62.0333,
                "lon": 129.7333,
                "name": "Yakutsk",
                "country": "Russian Federation",
                "cc": "RU",
                "sponsor": "MegaFon",
                "id": 5647,
                "host": "ykt.speedtest-dvf.megafon.ru:8080"
            },
            {
                "lat": 62.0333,
                "lon": 129.7333,
                "name": "Yakutsk",
                "country": "Russian Federation",
                "cc": "RU",
                "sponsor": "K-Service",
                "id": 12676,
                "host": "speedtest.vykt.ru:8080"
            },
            {
                "lat": 62.0333,
                "lon": 129.7333,
                "name": "Yakutsk",
                "country": "Russia",
                "cc": "RU",
                "sponsor": "Bridge-Telecom, Ltd",
                "id": 21607,
                "host": "speedtest.bridge-telecom.ru:8080"
            },
            {
                "lat": 62.0,
                "lon": -6.7833,
                "name": "Torshavn",
                "country": "Faroe Islands",
                "cc": "FO",
                "sponsor": "Faroese Telecom",
                "id": 462,
                "host": "speedtest1.internet.fo:8080"
            },
            {
                "lat": 62.0,
                "lon": -6.7833,
                "name": "T\u00f3rshavn",
                "country": "Faroe Islands",
                "cc": "FO",
                "sponsor": "Hey",
                "id": 22203,
                "host": "speedtest.hey.fo:8080"
            },
            {
                "lat": 61.7833,
                "lon": 34.3333,
                "name": "Petrozavodsk",
                "country": "Russian Federation",
                "cc": "RU",
                "sponsor": "CityLink Ltd",
                "id": 1712,
                "host": "speedtest-ptz.citylink-rk.ru:8080"
            },
            {
                "lat": 61.7833,
                "lon": 34.3333,
                "name": "Petrozavodsk",
                "country": "Russian Federation",
                "cc": "RU",
                "sponsor": "Rostelecom",
                "id": 2621,
                "host": "petrozavodsk.speedtest.rt.ru:8080"
            },
            {
                "lat": 61.7833,
                "lon": 34.3333,
                "name": "Petrozavodsk",
                "country": "Russian Federation",
                "cc": "RU",
                "sponsor": "Svyazservice LTD",
                "id": 5966,
                "host": "speedtest.sampo.ru:8080"
            },
            {
                "lat": 61.7045,
                "lon": 30.6879,
                "name": "Sortavala",
                "country": "Russian Federation",
                "cc": "RU",
                "sponsor": "CityLink Ltd",
                "id": 8656,
                "host": "speedtest-st.karelia.pro:8080"
            },
            {
                "lat": 61.6887,
                "lon": 27.2721,
                "name": "Mikkeli",
                "country": "Finland",
                "cc": "FI",
                "sponsor": "MPY Palvelut Oyj",
                "id": 10343,
                "host": "speedtest.mpynet.fi:8080"
            },
            {
                "lat": 61.6667,
                "lon": 50.8167,
                "name": "Syktyvkar",
                "country": "Russian Federation",
                "cc": "RU",
                "sponsor": "Rostelecom",
                "id": 2622,
                "host": "syktyvkar.speedtest.rt.ru:8080"
            },
            {
                "lat": 61.6667,
                "lon": 50.8167,
                "name": "Syktyvkar",
                "country": "Russian Federation",
                "cc": "RU",
                "sponsor": "Rostelecom",
                "id": 15435,
                "host": "syktyvkar4g.speedtest.rt.ru:8080"
            },
            {
                "lat": 61.6667,
                "lon": 50.8167,
                "name": "Syktyvkar",
                "country": "Russian Federation",
                "cc": "RU",
                "sponsor": "I-Way",
                "id": 10552,
                "host": "speedtest1.ksinet.ru:8080"
            },
            {
                "lat": 61.6667,
                "lon": 50.8167,
                "name": "Syktyvkar",
                "country": "Russian Federation",
                "cc": "RU",
                "sponsor": "CJSC SeverTransTeleCom",
                "id": 3173,
                "host": "speedtest2.ttksever.ru:8080"
            },
            {
                "lat": 61.5,
                "lon": 23.7667,
                "name": "Tampere",
                "country": "Finland",
                "cc": "FI",
                "sponsor": "Elmo",
                "id": 5055,
                "host": "nopeustesti.elmo.fi:8080"
            },
            {
                "lat": 61.4431,
                "lon": 5.9036,
                "name": "Forde",
                "country": "Norway",
                "cc": "NO",
                "sponsor": "Enivest AS",
                "id": 899,
                "host": "speedtest.enivest.net:8080"
            },
            {
                "lat": 61.2667,
                "lon": 73.4,
                "name": "Surgut",
                "country": "Russian Federation",
                "cc": "RU",
                "sponsor": "METROSET",
                "id": 2313,
                "host": "speedtest.sg.metro-set.ru:8080"
            },
            {
                "lat": 61.2667,
                "lon": 73.4,
                "name": "Surgut",
                "country": "Russia",
                "cc": "RU",
                "sponsor": "Rostelecom",
                "id": 23428,
                "host": "surgut.speedtest.rt.ru:8080"
            },
            {
                "lat": 61.25,
                "lon": 46.65,
                "name": "Kotlas",
                "country": "Russian Federation",
                "cc": "RU",
                "sponsor": "OOO Internet29",
                "id": 7964,
                "host": "speedtest.int29.ru:8080"
            },
            {
                "lat": 61.2396,
                "lon": 7.7121,
                "name": "Ardalstangen",
                "country": "Norway",
                "cc": "NO",
                "sponsor": "Ardalsnett AS",
                "id": 15331,
                "host": "speedtest.ardalsnett.no:8080"
            },
            {
                "lat": 61.2298,
                "lon": 7.1005,
                "name": "Sogndal",
                "country": "Norway",
                "cc": "NO",
                "sponsor": "Sognenett AS",
                "id": 16182,
                "host": "speedtest.sognenett.no:8080"
            },
            {
                "lat": 61.2183,
                "lon": -149.8991,
                "name": "Anchorage, AK",
                "country": "United States",
                "cc": "US",
                "sponsor": "Alaska Communications",
                "id": 980,
                "host": "speedtest.anc.acsalaska.net:8080"
            },
            {
                "lat": 61.2183,
                "lon": -149.8991,
                "name": "Anchorage, AK",
                "country": "United States",
                "cc": "US",
                "sponsor": "Verizon",
                "id": 16136,
                "host": "akan.ost.myvzw.com:8080"
            },
            {
                "lat": 61.2183,
                "lon": -149.8991,
                "name": "Anchorage, AK",
                "country": "United States",
                "cc": "US",
                "sponsor": "GCI - Anchorage",
                "id": 21386,
                "host": "speedtest.gci.net:8080"
            },
            {
                "lat": 61.1308,
                "lon": -146.3483,
                "name": "Valdez, AK",
                "country": "United States",
                "cc": "US",
                "sponsor": "Copper Valley Internet",
                "id": 1409,
                "host": "speedtest.cvinternet.net:8080"
            },
            {
                "lat": 61.1153,
                "lon": 10.4662,
                "name": "Lillehammer",
                "country": "Norway",
                "cc": "NO",
                "sponsor": "Eidsiva bredb\u00e5nd AS",
                "id": 15513,
                "host": "speedtest.eidsiva.net:8080"
            },
            {
                "lat": 61.0833,
                "lon": 72.7,
                "name": "Nefteyugansk",
                "country": "Russian Federation",
                "cc": "RU",
                "sponsor": "E-YUGANSK",
                "id": 9971,
                "host": "speedtest.e-yugansk.ru:8080"
            },
            {
                "lat": 61.05,
                "lon": 76.1,
                "name": "Megion",
                "country": "Russian Federation",
                "cc": "RU",
                "sponsor": "LLC Megion-Link",
                "id": 7312,
                "host": "spt1.megion.biz:8080"
            },
            {
                "lat": 61.0,
                "lon": 24.4667,
                "name": "Hameenlinna",
                "country": "Finland",
                "cc": "FI",
                "sponsor": "AinaCom Oy",
                "id": 4113,
                "host": "speedtest.aina.net:8080"
            },
            {
                "lat": 61.0,
                "lon": 69.0,
                "name": "Khanty-Mansiysk",
                "country": "Russian Federation",
                "cc": "RU",
                "sponsor": "Rostelecom",
                "id": 3524,
                "host": "hanty-mansiisk.speedtest.rt.ru:8080"
            },
            {
                "lat": 60.9333,
                "lon": 76.5333,
                "name": "Nizhnevartovsk",
                "country": "Russian Federation",
                "cc": "RU",
                "sponsor": "MTS",
                "id": 2063,
                "host": "speedtest3.sib.comstar-r.ru:8080"
            },
            {
                "lat": 60.9333,
                "lon": 76.5333,
                "name": "Nizhnevartovsk",
                "country": "Russia",
                "cc": "RU",
                "sponsor": "JSC Avantel",
                "id": 4547,
                "host": "st0-nv.avantel.ru:8080"
            },
            {
                "lat": 60.8792,
                "lon": 21.6931,
                "name": "Laitila",
                "country": "Finland",
                "cc": "FI",
                "sponsor": "Laitilan Puhelin Osk",
                "id": 3447,
                "host": "speedtest1.laitilanpuhelin.fi:8080"
            },
            {
                "lat": 60.7167,
                "lon": -135.05,
                "name": "Whitehorse, YT",
                "country": "Canada",
                "cc": "CA",
                "sponsor": "Northwestel Inc.",
                "id": 4400,
                "host": "wh-netspeed.nwtel.ca:8080"
            },
            {
                "lat": 60.5667,
                "lon": 27.2,
                "name": "Hamina",
                "country": "Finland",
                "cc": "FI",
                "sponsor": "Haminan Energia Oy",
                "id": 7871,
                "host": "sp1.haminetti.net:8080"
            },
            {
                "lat": 60.5424,
                "lon": -145.7525,
                "name": "Cordova, AK",
                "country": "United States",
                "cc": "US",
                "sponsor": "Cordova Telecom Cooperative",
                "id": 10601,
                "host": "speedtest.ctcak.net:8080"
            },
            {
                "lat": 60.45,
                "lon": 22.2667,
                "name": "Turku",
                "country": "Finland",
                "cc": "FI",
                "sponsor": "Turun Datatekniikka Oy",
                "id": 1303,
                "host": "speedtest-tku.dtnet.fi:8080"
            },
            {
                "lat": 60.3894,
                "lon": 5.33,
                "name": "Bergen",
                "country": "Norway",
                "cc": "NO",
                "sponsor": "DataOppdrag AS",
                "id": 2301,
                "host": "speedtest.dataoppdrag.no:8080"
            },
            {
                "lat": 60.3894,
                "lon": 5.33,
                "name": "Bergen",
                "country": "Norway",
                "cc": "NO",
                "sponsor": "AVUR AS",
                "id": 18987,
                "host": "ookla-bgo.net.avur.no:8080"
            },
            {
                "lat": 60.3702,
                "lon": 120.4302,
                "name": "Olekminsk",
                "country": "Russia",
                "cc": "RU",
                "sponsor": "LLC Positive",
                "id": 23636,
                "host": "myolekminsk.ru:8080"
            },
            {
                "lat": 60.1708,
                "lon": 24.9375,
                "name": "Helsinki",
                "country": "Finland",
                "cc": "FI",
                "sponsor": "DNA Oy",
                "id": 4427,
                "host": "speedtest1.s.dnaip.fi:8080"
            },
            {
                "lat": 60.1708,
                "lon": 24.9375,
                "name": "Helsinki",
                "country": "Finland",
                "cc": "FI",
                "sponsor": "Nebula Oy",
                "id": 864,
                "host": "speedtest-hki2.hosting.fi:8080"
            },
            {
                "lat": 60.1708,
                "lon": 24.9375,
                "name": "Helsinki",
                "country": "Finland",
                "cc": "FI",
                "sponsor": "Elisa Oyj",
                "id": 4549,
                "host": "speedtest1.saunalahti.fi:8080"
            },
            {
                "lat": 60.1708,
                "lon": 24.9375,
                "name": "Helsinki",
                "country": "Finland",
                "cc": "FI",
                "sponsor": "Datacenter Finland Oy",
                "id": 8185,
                "host": "fast.internet.fi:8080"
            },
            {
                "lat": 60.1708,
                "lon": 24.9375,
                "name": "Helsinki",
                "country": "Finland",
                "cc": "FI",
                "sponsor": "TruongFI",
                "id": 21988,
                "host": "speedtest.truong.fi:8080"
            },
            {
                "lat": 60.1699,
                "lon": 24.9384,
                "name": "Helsinki",
                "country": "Finland",
                "cc": "FI",
                "sponsor": "Telia",
                "id": 14928,
                "host": "speedtest.extra.telia.fi:8080"
            },
            {
                "lat": 60.1698,
                "lon": 24.9383,
                "name": "Helsinki",
                "country": "Finland",
                "cc": "FI",
                "sponsor": "DNA Welho Oy",
                "id": 14164,
                "host": "nopeus.dna.fi:8080"
            },
            {
                "lat": 60.1444,
                "lon": 30.1938,
                "name": "Sertolovo",
                "country": "Russian Federation",
                "cc": "RU",
                "sponsor": "X-Trim Ltd",
                "id": 15510,
                "host": "speedtest.xtrim.ru:8080"
            },
            {
                "lat": 60.0333,
                "lon": 30.6667,
                "name": "Vsevolozhsk",
                "country": "Russian Federation",
                "cc": "RU",
                "sponsor": "Vsevnet",
                "id": 6320,
                "host": "speed.vsevnet.ru:8080"
            },
            {
                "lat": 60.0333,
                "lon": 30.6667,
                "name": "Vsevolozhsk",
                "country": "Russian Federation",
                "cc": "RU",
                "sponsor": "XTELECOM.RU",
                "id": 9752,
                "host": "speed.xtelecom.ru:8080"
            },
            {
                "lat": 59.9494,
                "lon": 10.7564,
                "name": "Oslo",
                "country": "Norway",
                "cc": "NO",
                "sponsor": "Telenor Norge AS",
                "id": 12919,
                "host": "test.telenor.net:8080"
            },
            {
                "lat": 59.9494,
                "lon": 10.7564,
                "name": "Oslo",
                "country": "Norway",
                "cc": "NO",
                "sponsor": "Blix Solutions AS",
                "id": 3378,
                "host": "speed1.blix.com:8080"
            },
            {
                "lat": 59.9494,
                "lon": 10.7564,
                "name": "Oslo",
                "country": "Norway",
                "cc": "NO",
                "sponsor": "Broadnet",
                "id": 11787,
                "host": "osl.speedtest.as2116.net:8080"
            },
            {
                "lat": 59.9494,
                "lon": 10.7564,
                "name": "Oslo",
                "country": "Norway",
                "cc": "NO",
                "sponsor": "Altibox AS",
                "id": 13544,
                "host": "osl-ulv-speedtest1.altibox.net:8080"
            },
            {
                "lat": 59.9494,
                "lon": 10.7564,
                "name": "Oslo",
                "country": "Norway",
                "cc": "NO",
                "sponsor": "DataOppdrag AS",
                "id": 18316,
                "host": "osl-speedtest.dataoppdrag.no:8080"
            },
            {
                "lat": 59.9494,
                "lon": 10.7564,
                "name": "Oslo",
                "country": "Norway",
                "cc": "NO",
                "sponsor": "Bulk Infrastructure AS",
                "id": 4179,
                "host": "speedtest.ign.as:8080"
            },
            {
                "lat": 59.9494,
                "lon": 10.7564,
                "name": "Oslo",
                "country": "Norway",
                "cc": "NO",
                "sponsor": "AVUR",
                "id": 18967,
                "host": "ookla-osl.net.avur.no:8080"
            },
            {
                "lat": 59.9343,
                "lon": 30.3351,
                "name": "Saint Petersburg",
                "country": "Russian Federation",
                "cc": "RU",
                "sponsor": "RUNNet",
                "id": 14633,
                "host": "sp.runnet.ru:8080"
            },
            {
                "lat": 59.9333,
                "lon": 30.3333,
                "name": "Saint Petersburg",
                "country": "Russian Federation",
                "cc": "RU",
                "sponsor": "Rostelecom",
                "id": 2599,
                "host": "sankt-peterburg2.speedtest.rt.ru:8080"
            },
            {
                "lat": 59.9333,
                "lon": 30.3333,
                "name": "Saint Petersburg",
                "country": "Russian Federation",
                "cc": "RU",
                "sponsor": "ITSP Prometey",
                "id": 4231,
                "host": "speedtest.ptspb.net:8080"
            },
            {
                "lat": 59.9333,
                "lon": 30.3333,
                "name": "Saint Petersburg",
                "country": "Russian Federation",
                "cc": "RU",
                "sponsor": "Comfortel LLC.",
                "id": 5237,
                "host": "eperf.comfortel.pro:8080"
            },
            {
                "lat": 59.9333,
                "lon": 30.3333,
                "name": "St. Petersburg",
                "country": "Russian Federation",
                "cc": "RU",
                "sponsor": "LLC Globalnet",
                "id": 15715,
                "host": "speedtest.gblnet.ru:8080"
            },
            {
                "lat": 59.9333,
                "lon": 30.3333,
                "name": "Saint Petersburg",
                "country": "Russian Federation",
                "cc": "RU",
                "sponsor": "MTS OJSC",
                "id": 4247,
                "host": "speedtest-it.spb.mts.ru:8080"
            },
            {
                "lat": 59.9333,
                "lon": 30.3333,
                "name": "Saint Petersburg",
                "country": "Russian Federation",
                "cc": "RU",
                "sponsor": "OBIT",
                "id": 14771,
                "host": "speedtest.obit.ru:8080"
            },
            {
                "lat": 59.9333,
                "lon": 30.3333,
                "name": "Saint Petersburg",
                "country": "Russian Federation",
                "cc": "RU",
                "sponsor": "Selectel",
                "id": 16125,
                "host": "speedtest.selectel.ru:8080"
            },
            {
                "lat": 59.9333,
                "lon": 30.3333,
                "name": "Saint Petersburg",
                "country": "Russian Federation",
                "cc": "RU",
                "sponsor": "DOM.RU",
                "id": 2690,
                "host": "speedtest.spb.ertelecom.ru:8080"
            },
            {
                "lat": 59.9333,
                "lon": 30.3333,
                "name": "Saint Petersburg",
                "country": "Russian Federation",
                "cc": "RU",
                "sponsor": "CJSC RASCOM",
                "id": 5718,
                "host": "stpetersburg1.speedtest.rascom.ru:8080"
            },
            {
                "lat": 59.9333,
                "lon": 30.3333,
                "name": "Saint Petersburg",
                "country": "Russian Federation",
                "cc": "RU",
                "sponsor": "Smart Telecom",
                "id": 6735,
                "host": "speedtest.smartspb.net:8080"
            },
            {
                "lat": 59.9333,
                "lon": 30.3333,
                "name": "Saint Petersburg",
                "country": "Russian Federation",
                "cc": "RU",
                "sponsor": "AirNet",
                "id": 10299,
                "host": "sp2net1.airnet.ru:8080"
            },
            {
                "lat": 59.9333,
                "lon": 30.3333,
                "name": "Saint Petersburg",
                "country": "Russian Federation",
                "cc": "RU",
                "sponsor": "MaximaTelecom SPB",
                "id": 12549,
                "host": "speedtest.spb.wi-fi.ru:8080"
            },
            {
                "lat": 59.9333,
                "lon": 30.3333,
                "name": "Saint Petersburg",
                "country": "Russian Federation",
                "cc": "RU",
                "sponsor": "Vimpelcom ltd",
                "id": 4139,
                "host": "speedtest.spb.gldn.net:8080"
            },
            {
                "lat": 59.9333,
                "lon": 30.3333,
                "name": "Saint Petersburg",
                "country": "Russia",
                "cc": "RU",
                "sponsor": "CityTelecom",
                "id": 17310,
                "host": "speedtest.spb.citytelecom.ru:8080"
            },
            {
                "lat": 59.9333,
                "lon": 30.3333,
                "name": "Saint Petersburg",
                "country": "Russian Federation",
                "cc": "RU",
                "sponsor": "M18",
                "id": 12776,
                "host": "vaz-2106.ru:8080"
            },
            {
                "lat": 59.9333,
                "lon": 30.3333,
                "name": "St. Petersburg",
                "country": "Russia",
                "cc": "RU",
                "sponsor": "P.A.K.T. LLC",
                "id": 21014,
                "host": "speedtest.pakt.ru:8080"
            },
            {
                "lat": 59.9333,
                "lon": 30.3333,
                "name": "Saint Petersburg",
                "country": "Russian Federation",
                "cc": "RU",
                "sponsor": "Net By Net Holding LLC",
                "id": 11076,
                "host": "spb-speedtest-srv02.ti.ru:8080"
            },
            {
                "lat": 59.9333,
                "lon": 30.3333,
                "name": "Saint Petersburg",
                "country": "Russian Federation",
                "cc": "RU",
                "sponsor": "Forest Net",
                "id": 9644,
                "host": "speedtest.forestnet.pro:8080"
            },
            {
                "lat": 59.9333,
                "lon": 30.3333,
                "name": "Saint Petersburg",
                "country": "Russian Federation",
                "cc": "RU",
                "sponsor": "Miran",
                "id": 10309,
                "host": "speedtest.miran.ru:8080"
            },
            {
                "lat": 59.9333,
                "lon": 30.3333,
                "name": "Saint Petersburg",
                "country": "Russian Federation",
                "cc": "RU",
                "sponsor": "Tele2 Russia",
                "id": 6051,
                "host": "spb1.companion.tele2.ru:8080"
            },
            {
                "lat": 59.9333,
                "lon": 30.3333,
                "name": "Saint Petersburg",
                "country": "Russian Federation",
                "cc": "RU",
                "sponsor": "PIN Co. Ltd.",
                "id": 15929,
                "host": "speedtest.pinspb.ru:8080"
            },
            {
                "lat": 59.9333,
                "lon": 30.3333,
                "name": "Saint Petersburg",
                "country": "Russian Federation",
                "cc": "RU",
                "sponsor": "OOO Medianet",
                "id": 19058,
                "host": "speed.net47.ru:8080"
            },
            {
                "lat": 59.9333,
                "lon": 30.3333,
                "name": "Saint Petersburg",
                "country": "Russia",
                "cc": "RU",
                "sponsor": "RETN",
                "id": 18570,
                "host": "speedtest-spb.retn.net:8080"
            },
            {
                "lat": 59.9333,
                "lon": 30.3333,
                "name": "Saint-Petersburg",
                "country": "Russia",
                "cc": "RU",
                "sponsor": "WEBA",
                "id": 21491,
                "host": "speedtest-ookla1.weba.ru:8080"
            },
            {
                "lat": 59.9333,
                "lon": 30.3333,
                "name": "Saint Petersburg",
                "country": "Russian Federation",
                "cc": "RU",
                "sponsor": "ISP BCI Telecom",
                "id": 4810,
                "host": "speed.bci-tele.com:8080"
            },
            {
                "lat": 59.9333,
                "lon": 30.3333,
                "name": "Saint Petersburg",
                "country": "Russia",
                "cc": "RU",
                "sponsor": "UNIS",
                "id": 20780,
                "host": "speedtest.unisnet.ru:8080"
            },
            {
                "lat": 59.9333,
                "lon": 30.3333,
                "name": "Saint Petersburg",
                "country": "Russia",
                "cc": "RU",
                "sponsor": "JSC United Telecom",
                "id": 23440,
                "host": "speedtest.utelcom.ru:8080"
            },
            {
                "lat": 59.9167,
                "lon": 32.35,
                "name": "Volkhov",
                "country": "Russian Federation",
                "cc": "RU",
                "sponsor": "Volkhov-Online Ltd.",
                "id": 2086,
                "host": "vo47.ru:8080"
            },
            {
                "lat": 59.8897,
                "lon": 29.0856,
                "name": "Sosnovy Bor",
                "country": "Russian Federation",
                "cc": "RU",
                "sponsor": "LLC InfoCentre",
                "id": 2686,
                "host": "speedtest.sbor.net:8080"
            },
            {
                "lat": 59.8833,
                "lon": 30.9865,
                "name": "Kirovsk",
                "country": "Russian Federation",
                "cc": "RU",
                "sponsor": "Link",
                "id": 3866,
                "host": "speedtest.link-spb.ru:8080"
            },
            {
                "lat": 59.8833,
                "lon": 30.9865,
                "name": "Kirovsk",
                "country": "Russian Federation",
                "cc": "RU",
                "sponsor": "WebMAX ltd.",
                "id": 2193,
                "host": "speedtest.webmax.su:8080"
            },
            {
                "lat": 59.7667,
                "lon": 30.7833,
                "name": "Otradnoe",
                "country": "Russia",
                "cc": "RU",
                "sponsor": "Lentel",
                "id": 4752,
                "host": "www.lentel.ru:8080"
            },
            {
                "lat": 59.7333,
                "lon": 30.3833,
                "name": "Pushkin",
                "country": "Russian Federation",
                "cc": "RU",
                "sponsor": "TincoNet",
                "id": 2376,
                "host": "speedtest.tinconet.ru:8080"
            },
            {
                "lat": 59.7333,
                "lon": 30.3833,
                "name": "Pushkin",
                "country": "Russian Federation",
                "cc": "RU",
                "sponsor": "PushkinNet",
                "id": 7770,
                "host": "speed1.pushkinnet.com:8080"
            },
            {
                "lat": 59.6431,
                "lon": -151.5258,
                "name": "Homer, AK",
                "country": "United States",
                "cc": "US",
                "sponsor": "SPITwSPOTS",
                "id": 7683,
                "host": "sp1.spitwspots.com:8080"
            },
            {
                "lat": 59.5667,
                "lon": 30.1333,
                "name": "Gatchina",
                "country": "Russian Federation",
                "cc": "RU",
                "sponsor": "Gatchina-Online",
                "id": 2113,
                "host": "speedtest.gatchina.ru:8080"
            },
            {
                "lat": 59.5667,
                "lon": 150.8,
                "name": "Magadan",
                "country": "Russian Federation",
                "cc": "RU",
                "sponsor": "Rostelecom",
                "id": 3125,
                "host": "magadan.speedtest.rt.ru:8080"
            },
            {
                "lat": 59.5667,
                "lon": 150.8,
                "name": "Magadan",
                "country": "Russian Federation",
                "cc": "RU",
                "sponsor": "MTS Magadan",
                "id": 11146,
                "host": "speedtest-mag.mtsdv.ru:8080"
            },
            {
                "lat": 59.4833,
                "lon": 18.3,
                "name": "Akersberga",
                "country": "Sweden",
                "cc": "SE",
                "sponsor": "Teknikbyran i Sverige AB",
                "id": 4425,
                "host": "speedtest1.teknikbyran.com:8080"
            },
            {
                "lat": 59.45,
                "lon": 32.0,
                "name": "Kirishi",
                "country": "Russian Federation",
                "cc": "RU",
                "sponsor": "OOO TK TOR",
                "id": 2071,
                "host": "speed.kirishi.ru:8080"
            },
            {
                "lat": 59.4339,
                "lon": 24.7549,
                "name": "Tallinn",
                "country": "Estonia",
                "cc": "EE",
                "sponsor": "Telia Eesti AS",
                "id": 8168,
                "host": "kiirustest.telia.ee:8080"
            },
            {
                "lat": 59.4339,
                "lon": 24.7549,
                "name": "Tallinn",
                "country": "Estonia",
                "cc": "EE",
                "sponsor": "Elisa",
                "id": 2610,
                "host": "speedtest.elisa.ee:8080"
            },
            {
                "lat": 59.4339,
                "lon": 24.7549,
                "name": "Tallinn",
                "country": "Estonia",
                "cc": "EE",
                "sponsor": "Compic OU",
                "id": 3207,
                "host": "speed.fiber.ee:8080"
            },
            {
                "lat": 59.4339,
                "lon": 24.7549,
                "name": "Tallinn",
                "country": "Estonia",
                "cc": "EE",
                "sponsor": "Tele2 Eesti",
                "id": 3606,
                "host": "sidur.tele2.ee:8080"
            },
            {
                "lat": 59.4339,
                "lon": 24.7549,
                "name": "Tallinn",
                "country": "Estonia",
                "cc": "EE",
                "sponsor": "Telset AS",
                "id": 5654,
                "host": "speedtest1.telset.ee:8080"
            },
            {
                "lat": 59.4024,
                "lon": 17.9465,
                "name": "Kista",
                "country": "Sweden",
                "cc": "SE",
                "sponsor": "KeFF Networks",
                "id": 21028,
                "host": "speedtest.keff.org:8080"
            },
            {
                "lat": 59.393,
                "lon": 35.9303,
                "name": "Babaevo",
                "country": "Russia",
                "cc": "RU",
                "sponsor": "Telesystems LTD",
                "id": 22865,
                "host": "speedtest.ts35.net:8080"
            },
            {
                "lat": 59.3797,
                "lon": 28.1791,
                "name": "Narva",
                "country": "Estonia",
                "cc": "EE",
                "sponsor": "FairyHosting.com",
                "id": 12456,
                "host": "speedtest.fairyhosting.com:8080"
            },
            {
                "lat": 59.3667,
                "lon": 28.6167,
                "name": "Kingisepp",
                "country": "Russia",
                "cc": "RU",
                "sponsor": "King-Online Ltd.",
                "id": 4494,
                "host": "sp1.king-online.ru:8080"
            },
            {
                "lat": 59.3294,
                "lon": 18.0686,
                "name": "Stockholm",
                "country": "Sweden",
                "cc": "SE",
                "sponsor": "Hi3G Access AB",
                "id": 4533,
                "host": "speedtest.tre.se:8080"
            },
            {
                "lat": 59.3294,
                "lon": 18.0686,
                "name": "Stockholm",
                "country": "Sweden",
                "cc": "SE",
                "sponsor": "Interoute VDC",
                "id": 10256,
                "host": "sto.speedtest.interoute.net:8080"
            },
            {
                "lat": 59.3294,
                "lon": 18.0686,
                "name": "Stockholm",
                "country": "Sweden",
                "cc": "SE",
                "sponsor": "AltusHost B.V.",
                "id": 5235,
                "host": "se.altushost.com:8080"
            },
            {
                "lat": 59.3294,
                "lon": 18.0686,
                "name": "Stockholm",
                "country": "Sweden",
                "cc": "SE",
                "sponsor": "SpaceDump IT AB",
                "id": 2229,
                "host": "212.63.211.90:8080"
            },
            {
                "lat": 59.2167,
                "lon": 39.9,
                "name": "Vologda",
                "country": "Russian Federation",
                "cc": "RU",
                "sponsor": "Rostelecom",
                "id": 2596,
                "host": "vologda.speedtest.rt.ru:8080"
            },
            {
                "lat": 59.2167,
                "lon": 39.9,
                "name": "Vologda",
                "country": "Russian Federation",
                "cc": "RU",
                "sponsor": "MTS",
                "id": 1916,
                "host": "speedtest1.vologda.comstar-r.ru:8080"
            },
            {
                "lat": 59.1383,
                "lon": 10.1723,
                "name": "Sandefjord",
                "country": "Norway",
                "cc": "NO",
                "sponsor": "Speedtest.net",
                "id": 20209,
                "host": "osl.host.speedtest.net:8080"
            },
            {
                "lat": 59.1323,
                "lon": 37.9092,
                "name": "Cherepovets",
                "country": "Russian Federation",
                "cc": "RU",
                "sponsor": "Beeline",
                "id": 10987,
                "host": "msk-speedtest2.corbina.net:8080"
            },
            {
                "lat": 59.1167,
                "lon": 28.0667,
                "name": "Slantsy",
                "country": "Russian Federation",
                "cc": "RU",
                "sponsor": "OOO Kontakt",
                "id": 7459,
                "host": "speedtest.slantk.ru:8080"
            },
            {
                "lat": 58.97,
                "lon": 5.7331,
                "name": "Stavanger",
                "country": "Norway",
                "cc": "NO",
                "sponsor": "Altibox AS",
                "id": 14491,
                "host": "speedometer-st3.snartibox.no:8080"
            },
            {
                "lat": 58.9633,
                "lon": 5.7189,
                "name": "Stavanger",
                "country": "Norway",
                "cc": "NO",
                "sponsor": "Altibox AS",
                "id": 13094,
                "host": "stv-gm-speedtest1.altibox.net:8080"
            },
            {
                "lat": 58.9633,
                "lon": 5.7189,
                "name": "Stavanger",
                "country": "Norway",
                "cc": "NO",
                "sponsor": "XFIBER AS",
                "id": 7470,
                "host": "spnet1.xfiber.com:8080"
            },
            {
                "lat": 58.8533,
                "lon": 5.7329,
                "name": "Sandnes",
                "country": "Norway",
                "cc": "NO",
                "sponsor": "Xait",
                "id": 20758,
                "host": "speedtest.xait.no:8080"
            },
            {
                "lat": 58.7333,
                "lon": 29.85,
                "name": "Luga",
                "country": "Russia",
                "cc": "RU",
                "sponsor": "LugLink.Net",
                "id": 23581,
                "host": "speed.luglink.net:8080"
            },
            {
                "lat": 58.7302,
                "lon": 36.7966,
                "name": "Kstovo",
                "country": "Russian Federation",
                "cc": "RU",
                "sponsor": "\u0421\u0432\u044f\u0437\u0438\u0441\u0442",
                "id": 14189,
                "host": "st2.sv-tel.ru:8080"
            },
            {
                "lat": 58.6979,
                "lon": 59.4929,
                "name": "Kachkanar",
                "country": "Russian Federation",
                "cc": "RU",
                "sponsor": "Interra Ltd",
                "id": 11085,
                "host": "sp1.kch.interra.ru:8080"
            },
            {
                "lat": 58.6,
                "lon": 49.65,
                "name": "Kirov",
                "country": "Russian Federation",
                "cc": "RU",
                "sponsor": "Rostelecom",
                "id": 3508,
                "host": "kirov.speedtest.rt.ru:8080"
            },
            {
                "lat": 58.6,
                "lon": 49.65,
                "name": "Kirov",
                "country": "Russian Federation",
                "cc": "RU",
                "sponsor": "DOM.RU",
                "id": 2702,
                "host": "speedtest.kirov.ertelecom.ru:8080"
            },
            {
                "lat": 58.6,
                "lon": 49.65,
                "name": "Kirov",
                "country": "Russian Federation",
                "cc": "RU",
                "sponsor": "Beeline",
                "id": 6573,
                "host": "speedtest1.kirov.beeline.ru:8080"
            },
            {
                "lat": 58.6,
                "lon": 49.65,
                "name": "Kirov",
                "country": "Russia",
                "cc": "RU",
                "sponsor": "MegaFon",
                "id": 17041,
                "host": "kirov.speedtest-uf.megafon.ru:8080"
            },
            {
                "lat": 58.55,
                "lon": 43.683,
                "name": "Kostroma",
                "country": "Russian Federation",
                "cc": "RU",
                "sponsor": "Rostelecom",
                "id": 3261,
                "host": "kostroma.speedtest.rt.ru:8080"
            },
            {
                "lat": 58.55,
                "lon": 43.683,
                "name": "Kostroma",
                "country": "Russian Federation",
                "cc": "RU",
                "sponsor": "Kostroma Municipal Telephone Network",
                "id": 6565,
                "host": "st1.kostroma.net:8080"
            },
            {
                "lat": 58.55,
                "lon": 43.683,
                "name": "Kostroma",
                "country": "Russia",
                "cc": "RU",
                "sponsor": "Svyaz Energo LLC",
                "id": 22883,
                "host": "st1.sv-en.ru:8080"
            },
            {
                "lat": 58.5333,
                "lon": 31.2667,
                "name": "Veliky Novgorod",
                "country": "Russian Federation",
                "cc": "RU",
                "sponsor": "Rostelecom",
                "id": 3540,
                "host": "velikynovgorod.speedtest.rt.ru:8080"
            },
            {
                "lat": 58.3833,
                "lon": -134.1833,
                "name": "Juneau, AK",
                "country": "United States",
                "cc": "US",
                "sponsor": "Alaska Power and Telephone",
                "id": 10367,
                "host": "speedtest.aptalaska.net:8080"
            },
            {
                "lat": 58.3833,
                "lon": -134.1833,
                "name": "Juneau, AK",
                "country": "United States",
                "cc": "US",
                "sponsor": "TheSnowCloud",
                "id": 4841,
                "host": "speedtest.thesnowcloud.com:8080"
            },
            {
                "lat": 58.3833,
                "lon": 26.7167,
                "name": "Tartu",
                "country": "Estonia",
                "cc": "EE",
                "sponsor": "Elevi AS",
                "id": 23382,
                "host": "speedtest.elevi.ee:8080"
            },
            {
                "lat": 58.1953,
                "lon": 68.2581,
                "name": "Tobolsk",
                "country": "Russia",
                "cc": "RU",
                "sponsor": "MegaFon",
                "id": 17035,
                "host": "tobolsk.speedtest-uf.megafon.ru:8080"
            },
            {
                "lat": 58.1333,
                "lon": 52.6667,
                "name": "Glazov",
                "country": "Russian Federation",
                "cc": "RU",
                "sponsor": "NewIT",
                "id": 15393,
                "host": "speedtest.newit-lan.ru:8080"
            },
            {
                "lat": 58.1333,
                "lon": 52.6667,
                "name": "Glazov",
                "country": "Russian Federation",
                "cc": "RU",
                "sponsor": "GlazovNet",
                "id": 8635,
                "host": "speedtest.glazov.net:8080"
            },
            {
                "lat": 58.1333,
                "lon": 52.6667,
                "name": "Glazov",
                "country": "Russian Federation",
                "cc": "RU",
                "sponsor": "Garant-Glazov",
                "id": 5225,
                "host": "speed.garant.tv:8080"
            },
            {
                "lat": 58.1003,
                "lon": 57.8042,
                "name": "Lysva",
                "country": "Russian Federation",
                "cc": "RU",
                "sponsor": "KVARTAL.TV",
                "id": 5473,
                "host": "speedtest.kvartal.tv:8080"
            },
            {
                "lat": 58.0726,
                "lon": 60.7336,
                "name": "Niznyaya Salda",
                "country": "Russia",
                "cc": "RU",
                "sponsor": "Apelsin",
                "id": 22804,
                "host": "speed.apelsin-it.com:8080"
            },
            {
                "lat": 58.0,
                "lon": 56.3167,
                "name": "Perm",
                "country": "Russian Federation",
                "cc": "RU",
                "sponsor": "Rostelecom",
                "id": 5220,
                "host": "perm.speedtest.rt.ru:8080"
            },
            {
                "lat": 58.0,
                "lon": 56.3167,
                "name": "Perm",
                "country": "Russian Federation",
                "cc": "RU",
                "sponsor": "DOM.RU",
                "id": 2660,
                "host": "speedtest.perm.ertelecom.ru:8080"
            },
            {
                "lat": 58.0,
                "lon": 56.3167,
                "name": "Perm",
                "country": "Russia",
                "cc": "RU",
                "sponsor": "Internet Protocol Transit Telecom Ltd",
                "id": 18951,
                "host": "s1.iptt.ru:8080"
            },
            {
                "lat": 58.0,
                "lon": 56.3167,
                "name": "Perm",
                "country": "Russian Federation",
                "cc": "RU",
                "sponsor": "INNOR",
                "id": 6021,
                "host": "parmail.ru:8080"
            },
            {
                "lat": 58.0,
                "lon": 102.6667,
                "name": "Ust-ilimsk",
                "country": "Russian Federation",
                "cc": "RU",
                "sponsor": "Kabelnye_seti",
                "id": 3333,
                "host": "speed.ksilim.ru:8080"
            },
            {
                "lat": 58.0,
                "lon": 102.6667,
                "name": "Ust-ilimsk",
                "country": "Russian Federation",
                "cc": "RU",
                "sponsor": "Telnet Ltd",
                "id": 11050,
                "host": "speedtest.ilimnet.ru:8080"
            },
            {
                "lat": 58.0,
                "lon": 102.6667,
                "name": "Ust-Ilimsk",
                "country": "Russian Federation",
                "cc": "RU",
                "sponsor": "Ilim-Telecom",
                "id": 10648,
                "host": "speedtest.ilim-telecom.ru:8080"
            },
            {
                "lat": 57.9332,
                "lon": 55.3467,
                "name": "Nytva",
                "country": "Russian Federation",
                "cc": "RU",
                "sponsor": "NEXT-TELECOM LTD",
                "id": 16055,
                "host": "nytvahosting.ru:8080"
            },
            {
                "lat": 57.9215,
                "lon": 59.9816,
                "name": "Nizhniy Tagil",
                "country": "Russian Federation",
                "cc": "RU",
                "sponsor": "Seti Tagila",
                "id": 15096,
                "host": "speedtest.setitagila.ru:8080"
            },
            {
                "lat": 57.9215,
                "lon": 59.9816,
                "name": "Nizhny Tagil",
                "country": "Russia",
                "cc": "RU",
                "sponsor": "MegaFon",
                "id": 17038,
                "host": "nizhniy-tagil.speedtest-uf.megafon.ru:8080"
            },
            {
                "lat": 57.8833,
                "lon": 34.05,
                "name": "Bologoe",
                "country": "Russian Federation",
                "cc": "RU",
                "sponsor": "CJSC RASCOM",
                "id": 5702,
                "host": "bologoe1.speedtest.rascom.ru:8080"
            },
            {
                "lat": 57.8167,
                "lon": 28.3333,
                "name": "Pskov",
                "country": "Russian Federation",
                "cc": "RU",
                "sponsor": "Rostelecom",
                "id": 3526,
                "host": "pskov.speedtest.rt.ru:8080"
            },
            {
                "lat": 57.8167,
                "lon": 28.3333,
                "name": "Pskov",
                "country": "Russian Federation",
                "cc": "RU",
                "sponsor": "Pskovline LTD",
                "id": 1210,
                "host": "www.pskovline.ru:8080"
            },
            {
                "lat": 57.8167,
                "lon": 28.3333,
                "name": "Pskov",
                "country": "Russian Federation",
                "cc": "RU",
                "sponsor": "Net By Net Holding LLC",
                "id": 11075,
                "host": "psk-speedtest-srv02.ti.ru:8080"
            },
            {
                "lat": 57.6167,
                "lon": 39.85,
                "name": "Yaroslavl",
                "country": "Russian Federation",
                "cc": "RU",
                "sponsor": "Rostelecom",
                "id": 2620,
                "host": "yaroslavl.speedtest.rt.ru:8080"
            },
            {
                "lat": 57.6167,
                "lon": 39.85,
                "name": "Yaroslavl",
                "country": "Russian Federation",
                "cc": "RU",
                "sponsor": "JSC ER-Telecom Holding",
                "id": 2666,
                "host": "speedtest.yar.ertelecom.ru:8080"
            },
            {
                "lat": 57.6167,
                "lon": 39.85,
                "name": "Yaroslavl",
                "country": "Russian Federation",
                "cc": "RU",
                "sponsor": "Volga IX",
                "id": 10230,
                "host": "st.atel76.ru:8080"
            },
            {
                "lat": 57.6167,
                "lon": 39.85,
                "name": "Yaroslavl",
                "country": "Russian Federation",
                "cc": "RU",
                "sponsor": "CJSC TransTeleCom",
                "id": 3088,
                "host": "speedtest1.ttksever.ru:8080"
            },
            {
                "lat": 57.6167,
                "lon": 39.85,
                "name": "Yaroslavl",
                "country": "Russian Federation",
                "cc": "RU",
                "sponsor": "Zavolga.Net",
                "id": 4692,
                "host": "zavolga.net:8080"
            },
            {
                "lat": 57.6167,
                "lon": 39.85,
                "name": "Yaroslavl",
                "country": "Russia",
                "cc": "RU",
                "sponsor": "Yarnet",
                "id": 18234,
                "host": "speedtest.yarnet.ru:8080"
            },
            {
                "lat": 57.6167,
                "lon": 39.85,
                "name": "Yaroslavl",
                "country": "Russian Federation",
                "cc": "RU",
                "sponsor": "LiveComm",
                "id": 4674,
                "host": "speed.livecomm.net:8080"
            },
            {
                "lat": 57.6167,
                "lon": 39.85,
                "name": "Yaroslavl",
                "country": "Russian Federation",
                "cc": "RU",
                "sponsor": "CJSC YarTranzitTelecom",
                "id": 2772,
                "host": "st1.yar-tt.ru:8080"
            },
            {
                "lat": 57.6167,
                "lon": 39.85,
                "name": "Yaroslavl",
                "country": "Russian Federation",
                "cc": "RU",
                "sponsor": "NETIS Telecom",
                "id": 9984,
                "host": "sp1.netis.ru:8080"
            },
            {
                "lat": 57.5833,
                "lon": 9.95,
                "name": "Hirtshals",
                "country": "Denmark",
                "cc": "DK",
                "sponsor": "Nygreen IT ApS",
                "id": 5294,
                "host": "speedtest.nygreenit.net:8080"
            },
            {
                "lat": 57.3833,
                "lon": 21.55,
                "name": "Ventspils",
                "country": "Latvia",
                "cc": "LV",
                "sponsor": "iLink",
                "id": 4173,
                "host": "test1.ilink.lv:8080"
            },
            {
                "lat": 57.3666,
                "lon": 61.4222,
                "name": "Rezh",
                "country": "Russia",
                "cc": "RU",
                "sponsor": "MEDIALINE",
                "id": 23675,
                "host": "speedtest.rezh96.ru:8080"
            },
            {
                "lat": 57.1526,
                "lon": -2.11,
                "name": "Aberdeen",
                "country": "Great Britain",
                "cc": "GB",
                "sponsor": "Converged Communication Solutions Limited",
                "id": 9171,
                "host": "speedtest1.converged.co.uk:8080"
            },
            {
                "lat": 57.15,
                "lon": 65.5333,
                "name": "Tyumen",
                "country": "Russian Federation",
                "cc": "RU",
                "sponsor": "DOM.RU",
                "id": 2697,
                "host": "speedtest.tmn.ertelecom.ru:8080"
            },
            {
                "lat": 57.15,
                "lon": 65.5333,
                "name": "Tyumen",
                "country": "Russian Federation",
                "cc": "RU",
                "sponsor": "Rostelecom",
                "id": 5769,
                "host": "tumen.speedtest.rt.ru:8080"
            },
            {
                "lat": 57.15,
                "lon": 65.5333,
                "name": "Tyumen",
                "country": "Russian Federation",
                "cc": "RU",
                "sponsor": "Metroset",
                "id": 10870,
                "host": "speedtest.tm.metro-set.ru:8080"
            },
            {
                "lat": 57.15,
                "lon": 65.5333,
                "name": "Tyumen",
                "country": "Russian Federation",
                "cc": "RU",
                "sponsor": "Delta Telesystems",
                "id": 988,
                "host": "speedtest.oborona.net:8080"
            },
            {
                "lat": 57.15,
                "lon": 65.5333,
                "name": "Tyumen",
                "country": "Russian Federation",
                "cc": "RU",
                "sponsor": "TeleSeti LTD",
                "id": 6891,
                "host": "st.teleseti.net:8080"
            },
            {
                "lat": 57.15,
                "lon": 65.5333,
                "name": "Tyumen",
                "country": "Russian Federation",
                "cc": "RU",
                "sponsor": "23-NET",
                "id": 9598,
                "host": "sp1.23-net.ru:8080"
            },
            {
                "lat": 57.15,
                "lon": 65.5333,
                "name": "Tyumen",
                "country": "Russia",
                "cc": "RU",
                "sponsor": "Proxicom LLC",
                "id": 23300,
                "host": "speedtest.proxicom.ru:8080"
            },
            {
                "lat": 57.15,
                "lon": 65.5333,
                "name": "Tyumen",
                "country": "Russian Federation",
                "cc": "RU",
                "sponsor": "OOO Pozitiv Telecom",
                "id": 9322,
                "host": "sp.pozitivtelecom.ru:8080"
            },
            {
                "lat": 57.1167,
                "lon": 12.2167,
                "name": "Varberg",
                "country": "Sweden",
                "cc": "SE",
                "sponsor": "Mediateknik",
                "id": 6648,
                "host": "sp1.mediateknik.net:8080"
            },
            {
                "lat": 57.0488,
                "lon": 9.9217,
                "name": "Aalborg",
                "country": "Denmark",
                "cc": "DK",
                "sponsor": "Telenor Denmark",
                "id": 11530,
                "host": "speedtest.telenor.dk:8080"
            },
            {
                "lat": 57.0,
                "lon": 61.4667,
                "name": "Asbest",
                "country": "Russia",
                "cc": "RU",
                "sponsor": "Intersat Ltd.",
                "id": 5183,
                "host": "st.intersat.ru:8080"
            },
            {
                "lat": 56.9967,
                "lon": 40.9819,
                "name": "Ivanovo",
                "country": "Russian Federation",
                "cc": "RU",
                "sponsor": "Rostelecom",
                "id": 3481,
                "host": "ivanovo.speedtest.rt.ru:8080"
            },
            {
                "lat": 56.9967,
                "lon": 40.9819,
                "name": "Ivanovo",
                "country": "Russian Federation",
                "cc": "RU",
                "sponsor": "MTS",
                "id": 5038,
                "host": "speedtest1.ivanovo.comstar-r.ru:8080"
            },
            {
                "lat": 56.9967,
                "lon": 40.9819,
                "name": "Ivanovo",
                "country": "Russian Federation",
                "cc": "RU",
                "sponsor": "TTK",
                "id": 16483,
                "host": "test.ivn.ttksever.ru:8080"
            },
            {
                "lat": 56.9967,
                "lon": 40.9819,
                "name": "Ivanovo",
                "country": "Russian Federation",
                "cc": "RU",
                "sponsor": "MTT Connect",
                "id": 9945,
                "host": "st.345000.ru:8080"
            },
            {
                "lat": 56.9496,
                "lon": 24.104,
                "name": "Riga",
                "country": "Latvia",
                "cc": "LV",
                "sponsor": "AS Balticom",
                "id": 1348,
                "host": "ping.lv:8080"
            },
            {
                "lat": 56.9496,
                "lon": 24.104,
                "name": "Riga",
                "country": "Latvia",
                "cc": "LV",
                "sponsor": "Lattelecom",
                "id": 1268,
                "host": "mini1.speedtest.lv:8080"
            },
            {
                "lat": 56.9496,
                "lon": 24.104,
                "name": "Riga",
                "country": "Latvia",
                "cc": "LV",
                "sponsor": "Latvijas Mobilais Telefons",
                "id": 2148,
                "host": "speedtest.lmt.lv:8080"
            },
            {
                "lat": 56.9496,
                "lon": 24.104,
                "name": "Riga",
                "country": "Latvia",
                "cc": "LV",
                "sponsor": "DEAC",
                "id": 8455,
                "host": "sp1-lv.deac.eu:8080"
            },
            {
                "lat": 56.9496,
                "lon": 24.104,
                "name": "Riga",
                "country": "Latvia",
                "cc": "LV",
                "sponsor": "SIA Bite Latvija",
                "id": 5834,
                "host": "speedtest.bite.lv:8080"
            },
            {
                "lat": 56.9496,
                "lon": 24.104,
                "name": "Riga",
                "country": "Latvia",
                "cc": "LV",
                "sponsor": "Telenet, sia",
                "id": 7322,
                "host": "speedtest.telenet.lv:8080"
            },
            {
                "lat": 56.9496,
                "lon": 24.104,
                "name": "Riga",
                "country": "Latvia",
                "cc": "LV",
                "sponsor": "GARMTECH",
                "id": 19456,
                "host": "speedtest.garmtech.net:8080"
            },
            {
                "lat": 56.9496,
                "lon": 24.104,
                "name": "Riga",
                "country": "Latvia",
                "cc": "LV",
                "sponsor": "SIA Stream Networks",
                "id": 2151,
                "host": "speedtest1.srnet.lv:8080"
            },
            {
                "lat": 56.9496,
                "lon": 24.104,
                "name": "Riga",
                "country": "Latvia",
                "cc": "LV",
                "sponsor": "peacedata.us",
                "id": 21315,
                "host": "peacedata.us:8080"
            },
            {
                "lat": 56.9496,
                "lon": 24.1052,
                "name": "Riga",
                "country": "Latvia",
                "cc": "LV",
                "sponsor": "Baltcom",
                "id": 13246,
                "host": "speedtest1.baltcom.lv:8080"
            },
            {
                "lat": 56.9089,
                "lon": 60.795,
                "name": "Berezovskiy",
                "country": "RU",
                "cc": "RU",
                "sponsor": "KVANT Telecommunications",
                "id": 16765,
                "host": "speedtest.kvant-ber.ru:8080"
            },
            {
                "lat": 56.8999,
                "lon": 59.9521,
                "name": "Pervouralsk",
                "country": "Russian Federation",
                "cc": "RU",
                "sponsor": "Interra Ltd",
                "id": 11124,
                "host": "sp1.interra.ru:8080"
            },
            {
                "lat": 56.8667,
                "lon": 35.9167,
                "name": "Tver",
                "country": "Russian Federation",
                "cc": "RU",
                "sponsor": "MTS",
                "id": 1909,
                "host": "speedtest1.tver.comstar-r.ru:8080"
            },
            {
                "lat": 56.8667,
                "lon": 35.9167,
                "name": "Tver",
                "country": "Russian Federation",
                "cc": "RU",
                "sponsor": "DOM.RU",
                "id": 2732,
                "host": "speedtest.tver.ertelecom.ru:8080"
            },
            {
                "lat": 56.8667,
                "lon": 35.9167,
                "name": "Tver",
                "country": "Russian Federation",
                "cc": "RU",
                "sponsor": "Rostelecom",
                "id": 3265,
                "host": "tver.speedtest.rt.ru:8080"
            },
            {
                "lat": 56.8667,
                "lon": 35.9167,
                "name": "Tver",
                "country": "Russian Federation",
                "cc": "RU",
                "sponsor": "Net By Net Holding LLC",
                "id": 11077,
                "host": "tver-speedtest-srv02.ti.ru:8080"
            },
            {
                "lat": 56.8667,
                "lon": 35.9167,
                "name": "Tver",
                "country": "Russian Federation",
                "cc": "RU",
                "sponsor": "Sky@Net",
                "id": 11947,
                "host": "speedtest.tvhost.ru:8080"
            },
            {
                "lat": 56.8667,
                "lon": 35.9167,
                "name": "Tver",
                "country": "Russian Federation",
                "cc": "RU",
                "sponsor": "Fast Link Ltd.",
                "id": 1111,
                "host": "speed.fastlnk.ru:8080"
            },
            {
                "lat": 56.8667,
                "lon": 35.9167,
                "name": "Tver",
                "country": "Russian Federation",
                "cc": "RU",
                "sponsor": "REGIONSVYAZ, LLC",
                "id": 6814,
                "host": "st1.regsv.com:8080"
            },
            {
                "lat": 56.8389,
                "lon": 60.6057,
                "name": "Ekaterinburg",
                "country": "Russia",
                "cc": "RU",
                "sponsor": "ProfiStream.Com",
                "id": 23694,
                "host": "srv1.profistream.com:8080"
            },
            {
                "lat": 56.8389,
                "lon": 60.6057,
                "name": "Ekaterinburg",
                "country": "Russia",
                "cc": "RU",
                "sponsor": "K-Telecom",
                "id": 23772,
                "host": "speedtest.k-telecom.org:8080"
            },
            {
                "lat": 56.8333,
                "lon": 53.1833,
                "name": "Izhevsk",
                "country": "Russian Federation",
                "cc": "RU",
                "sponsor": "Rostelecom",
                "id": 3516,
                "host": "izhevsk.speedtest.rt.ru:8080"
            },
            {
                "lat": 56.8333,
                "lon": 53.1833,
                "name": "Izhevsk",
                "country": "Russian Federation",
                "cc": "RU",
                "sponsor": "Mark-ITT",
                "id": 1136,
                "host": "speedtest.izhevsk.net:8080"
            },
            {
                "lat": 56.8333,
                "lon": 53.1833,
                "name": "Izhevsk",
                "country": "Russia",
                "cc": "RU",
                "sponsor": "MTS",
                "id": 17014,
                "host": "rapido.izhnt.ru:8080"
            },
            {
                "lat": 56.8333,
                "lon": 53.1833,
                "name": "Izhevsk",
                "country": "Russian Federation",
                "cc": "RU",
                "sponsor": "DOM.RU",
                "id": 2704,
                "host": "speedtest.izhevsk.ertelecom.ru:8080"
            },
            {
                "lat": 56.8333,
                "lon": 60.5833,
                "name": "Ekaterinburg",
                "country": "Russian Federation",
                "cc": "RU",
                "sponsor": "Rostelecom",
                "id": 2602,
                "host": "ekaterinburg1.speedtest.rt.ru:8080"
            },
            {
                "lat": 56.8333,
                "lon": 60.5833,
                "name": "Ekaterinburg",
                "country": "Russian Federation",
                "cc": "RU",
                "sponsor": "Teleset-Service",
                "id": 4745,
                "host": "speedtest.telenet.ru:8080"
            },
            {
                "lat": 56.8333,
                "lon": 60.5833,
                "name": "Ekaterinburg",
                "country": "Russian Federation",
                "cc": "RU",
                "sponsor": "Beeline",
                "id": 6400,
                "host": "ekat1.speedtest.corbina.net:8080"
            },
            {
                "lat": 56.8333,
                "lon": 60.5833,
                "name": "Ekaterinburg",
                "country": "Ekaterinburg",
                "cc": "RU",
                "sponsor": "MOTIV",
                "id": 5681,
                "host": "speedtest.motivtelecom.ru:8080"
            },
            {
                "lat": 56.8333,
                "lon": 60.5833,
                "name": "Yekaterinburg",
                "country": "Russian Federation",
                "cc": "RU",
                "sponsor": "DOM.RU",
                "id": 5844,
                "host": "ookla.ekat.ertelecom.ru:8080"
            },
            {
                "lat": 56.8333,
                "lon": 60.5833,
                "name": "Ekaterinburg",
                "country": "Russian Federation",
                "cc": "RU",
                "sponsor": "Ural WES",
                "id": 1930,
                "host": "tarvalon.ural.net:8080"
            },
            {
                "lat": 56.8333,
                "lon": 60.5833,
                "name": "Ekaterinburg",
                "country": "RU",
                "cc": "RU",
                "sponsor": "MTS PJSC",
                "id": 16727,
                "host": "speedtest.ural.mts.ru:8080"
            },
            {
                "lat": 56.8333,
                "lon": 60.5833,
                "name": "Ekaterinburg",
                "country": "Russian Federation",
                "cc": "RU",
                "sponsor": "Tele2 Russia",
                "id": 6616,
                "host": "ekt1.companion.tele2.ru:8080"
            },
            {
                "lat": 56.8333,
                "lon": 60.5833,
                "name": "Ekaterinburg",
                "country": "Russia",
                "cc": "RU",
                "sponsor": "Rostelecom",
                "id": 21011,
                "host": "ekaterinburg2.speedtest.rt.ru:8080"
            },
            {
                "lat": 56.8167,
                "lon": 24.6,
                "name": "Ogre",
                "country": "Latvia",
                "cc": "LV",
                "sponsor": "M4host",
                "id": 22608,
                "host": "speedtest.m4host.net:8080"
            },
            {
                "lat": 56.791,
                "lon": 105.7769,
                "name": "Ust-Kut",
                "country": "Russia",
                "cc": "RU",
                "sponsor": "OOOSvyaz",
                "id": 23146,
                "host": "speedtest.60500.ru:8080"
            },
            {
                "lat": 56.7803,
                "lon": 62.0494,
                "name": "Bogdanovich",
                "country": "Russian Federation",
                "cc": "RU",
                "sponsor": "Info-Net",
                "id": 5088,
                "host": "web.rest.ru:8080"
            },
            {
                "lat": 56.7333,
                "lon": 37.1667,
                "name": "Dubna",
                "country": "Russian Federation",
                "cc": "RU",
                "sponsor": "Contact Company Ltd.",
                "id": 2786,
                "host": "st1.dubna.ru:8080"
            },
            {
                "lat": 56.6483,
                "lon": 23.7139,
                "name": "Jelgava",
                "country": "Latvia",
                "cc": "LV",
                "sponsor": "BALTCOM",
                "id": 8106,
                "host": "speedtest1.btv.lv:8080"
            },
            {
                "lat": 56.6333,
                "lon": 47.8667,
                "name": "Yoshkar-ola",
                "country": "Russia",
                "cc": "RU",
                "sponsor": "Rostelecom",
                "id": 5583,
                "host": "yoshkar-ola.speedtest.rt.ru:8080"
            },
            {
                "lat": 56.6333,
                "lon": 47.8667,
                "name": "Yoshkar-ola",
                "country": "Russian Federation",
                "cc": "RU",
                "sponsor": "DOM.RU",
                "id": 2662,
                "host": "speedtest.yola.ertelecom.ru:8080"
            },
            {
                "lat": 56.5992,
                "lon": 61.1003,
                "name": "Dvurechensk",
                "country": "Russian Federation",
                "cc": "RU",
                "sponsor": "IT service LLC",
                "id": 6075,
                "host": "speedtest.icom.net.ru:8080"
            },
            {
                "lat": 56.5117,
                "lon": 21.0139,
                "name": "Liepaja",
                "country": "Latvia",
                "cc": "LV",
                "sponsor": "ElektronsandK",
                "id": 2739,
                "host": "net.elektrons-k.lv:8080"
            },
            {
                "lat": 56.5117,
                "lon": 21.0139,
                "name": "Liepaja",
                "country": "Latvia",
                "cc": "LV",
                "sponsor": "SIA OSTKOM",
                "id": 2450,
                "host": "speed.ostkom.lv:8080"
            },
            {
                "lat": 56.5058,
                "lon": 13.0456,
                "name": "Laholm",
                "country": "Sweden",
                "cc": "SE",
                "sponsor": "Wekudata AB",
                "id": 12741,
                "host": "speedy.wekudata.com:8080"
            },
            {
                "lat": 56.5,
                "lon": 84.97,
                "name": "Tomsk",
                "country": "Russian Federation",
                "cc": "RU",
                "sponsor": "Rostelecom",
                "id": 5740,
                "host": "tomsk.speedtest.rt.ru:8080"
            },
            {
                "lat": 56.5,
                "lon": 84.97,
                "name": "Tomsk",
                "country": "RU",
                "cc": "RU",
                "sponsor": "O-Zone",
                "id": 18211,
                "host": "o-zonet.ru:8080"
            },
            {
                "lat": 56.5,
                "lon": 84.97,
                "name": "Tomsk",
                "country": "Russian Federation",
                "cc": "RU",
                "sponsor": "DOM.RU",
                "id": 2943,
                "host": "speedtest.tomsk.ertelecom.ru:8080"
            },
            {
                "lat": 56.5,
                "lon": 84.97,
                "name": "Tomsk",
                "country": "Russia",
                "cc": "RU",
                "sponsor": "ICA LTD",
                "id": 22123,
                "host": "st-world.tomica.ru:8080"
            },
            {
                "lat": 56.3947,
                "lon": 38.712,
                "name": "Alexandrov",
                "country": "Russian Federation",
                "cc": "RU",
                "sponsor": "Garant-ATI ltd.",
                "id": 11035,
                "host": "test.alexnet.ru:8080"
            },
            {
                "lat": 56.3947,
                "lon": 38.712,
                "name": "Alexandrov",
                "country": "Russia",
                "cc": "RU",
                "sponsor": "GALS",
                "id": 23490,
                "host": "speedtest.galsnet.ru:8080"
            },
            {
                "lat": 56.3916,
                "lon": 38.7138,
                "name": "Alexandrov",
                "country": "Russia",
                "cc": "RU",
                "sponsor": "Trytek",
                "id": 19118,
                "host": "speedtest.trytek.ru:8080"
            },